[
   {
      "lat":12.9579208,
      "lon": 79.1373210,
      "phone":"09606132280",
      "name":"AKSHAYAA GENERAL AND DENTAL HOSPITAL"
   },
   {
      "lat":12.9540483,
      "lon":79.1370632,
      "phone":"09842324425",
      "name":"Indira Superspeciality Hospital"
   },
   
{
	"lat":"12.978490433874214",
	"lon":"79.16350062606139",
	"phone":"1234567890",
	"name":"Free Medical Hospital"
},

{
	"lat":"12.936229070769896",
	"lon":"79.16630350309285",
	"phone":"1234567890",
	"name":"Sri Sakthi Amma Hospital"
},

{
	"lat":"12.9656457313013",
	"lon":"79.16795902450087",
	"phone":"1234567890",
	"name":"Jyothi clinic"
},


{
	"lat":"12.946689743125834",
	"lon":"79.13981651055924",
	"phone":"1234567890",
	"name":"Kumaran Hospital"
},

{
	"lat":"12.978490433874214",
	"lon":"79.16350062606139",
	"phone":"1234567890",
	"name":"Free Medical Hospital"
},

{
	"lat":"12.936229070769896",
	"lon":"79.16630350309285",
	"phone":"1234567890",
	"name":"Sri Sakthi Amma Hospital"
},

{
	"lat":"12.9656457313013",
	"lon":"79.16795902450087",
	"phone":"1234567890",
	"name":"Jyothi clinic"
},


{
	"lat":"12.946689743125834",
	"lon":"79.13981651055924",
	"phone":"1234567890",
	"name":"Kumaran Hospital"
},

{
	"lat":"12.978490433874214",
	"lon":"79.16350062606139",
	"phone":"1234567890",
	"name":"Free Medical Hospital"
},

{
	"lat":"12.936229070769896",
	"lon":"79.16630350309285",
	"phone":"1234567890",
	"name":"Sri Sakthi Amma Hospital"
},

{
	"lat":"12.9656457313013",
	"lon":"79.16795902450087",
	"phone":"1234567890",
	"name":"Jyothi clinic"
},


{
	"lat":"12.946689743125834",
	"lon":"79.13981651055924",
	"phone":"1234567890",
	"name":"Kumaran Hospital"
},

{
	"lat":"12.978490433874214",
	"lon":"79.16350062606139",
	"phone":"1234567890",
	"name":"Free Medical Hospital"
},

{
	"lat":"12.936229070769896",
	"lon":"79.16630350309285",
	"phone":"1234567890",
	"name":"Sri Sakthi Amma Hospital"
},

{
	"lat":"12.9656457313013",
	"lon":"79.16795902450087",
	"phone":"1234567890",
	"name":"Jyothi clinic"
},


{
	"lat":"12.946689743125834",
	"lon":"79.13981651055924",
	"phone":"1234567890",
	"name":"Kumaran Hospital"
}   
]